$GNGGA,073311.000,4004.717978,N,11614.146543,E,1,14,1.142,33.508,M,0,M,,*50
$GNGLL,4004.717978,N,11614.146543,E,073311.000,A,A*45
$GNGSA,A,3,5,6,9,17,2,12,,,,,,,1.952,1.142,1.583*27
$GNGSA,A,3,161,162,163,164,165,166,168,169,,,,,1.952,1.142,1.583*2C
$GPGSV,2,1,8,2,61,315,31,5,41,230,49,6,62,51,50,9,36,73,43*42
$GPGSV,2,2,8,12,32,267,42,17,27,143,41,23,12,40,,25,18,307,*7A
$BDGSV,2,1,8,161,36,146,41,162,31,229,35,163,43,188,42,164,25,124,36*5C
$BDGSV,2,2,8,165,16,248,38,166,67,200,43,168,67,127,45,169,38,211,34*5E
$GNGGA,073312.000,4004.717974,N,11614.146545,E,1,14,1.142,33.507,M,0,M,,*56
$GNGLL,4004.717974,N,11614.146545,E,073312.000,A,A*4C
$GNGSA,A,3,5,6,9,17,2,12,,,,,,,1.952,1.142,1.583*27
$GNGSA,A,3,161,162,163,164,165,166,168,169,,,,,1.952,1.142,1.583*2C
$GPGSV,2,1,8,2,61,315,31,5,41,230,49,6,62,51,50,9,36,73,44*45
$GPGSV,2,2,8,12,32,267,42,17,27,143,41,23,12,40,,25,18,307,*7A
$BDGSV,2,1,8,161,36,146,41,162,31,229,35,163,43,188,42,164,25,124,36*5C
$BDGSV,2,2,8,165,16,248,38,166,67,200,43,168,67,127,45,169,38,211,35*5F
$GNGGA,073313.000,4004.717970,N,11614.146545,E,1,14,1.142,33.506,M,0,M,,*52
$GNGLL,4004.717970,N,11614.146545,E,073313.000,A,A*49
$GNGSA,A,3,5,6,9,17,2,12,,,,,,,1.952,1.142,1.583*27
$GNGSA,A,3,161,162,163,164,165,166,168,169,,,,,1.952,1.142,1.583*2C
$GPGSV,2,1,8,2,61,315,31,5,41,230,49,6,62,51,50,9,36,73,44*45
$GPGSV,2,2,8,12,32,267,43,17,27,143,40,23,12,40,,25,18,307,*7A
$BDGSV,2,1,8,161,36,146,40,162,31,229,35,163,43,188,42,164,25,124,36*5D
$BDGSV,2,2,8,165,16,248,38,166,67,200,44,168,67,127,45,169,38,211,35*58
$GNGGA,073314.000,4004.717963,N,11614.146546,E,1,14,1.142,33.507,M,0,M,,*55
$GNGLL,4004.717963,N,11614.146546,E,073314.000,A,A*4F
$GNGSA,A,3,5,6,9,17,2,12,,,,,,,1.952,1.142,1.583*27
$GNGSA,A,3,161,162,163,164,165,166,168,169,,,,,1.952,1.142,1.583*2C
$GPGSV,2,1,8,2,61,315,32,5,41,230,49,6,62,51,50,9,36,73,44*46
$GPGSV,2,2,8,12,32,267,44,17,27,143,40,23,12,40,,25,18,307,*7D
$BDGSV,2,1,8,161,36,146,40,162,31,229,34,163,43,188,42,164,25,124,36*5C
$BDGSV,2,2,8,165,16,248,38,166,67,200,44,168,67,127,45,169,38,211,35*58
$GNGGA,073315.000,4004.717958,N,11614.146547,E,1,14,1.142,33.506,M,0,M,,*5C
$GNGLL,4004.717958,N,11614.146547,E,073315.000,A,A*47
$GNGSA,A,3,5,6,9,17,2,12,,,,,,,1.952,1.142,1.583*27
$GNGSA,A,3,161,162,163,164,165,166,168,169,,,,,1.952,1.142,1.583*2C
$GPGSV,2,1,8,2,61,315,32,5,41,230,48,6,62,51,49,9,36,73,43*48
$GPGSV,2,2,8,12,32,267,44,17,27,143,40,23,12,40,,25,18,307,*7D
$BDGSV,2,1,8,161,36,146,40,162,31,229,34,163,43,188,41,164,25,124,36*5F
$BDGSV,2,2,8,165,16,248,38,166,67,200,44,168,67,127,45,169,38,211,36*5B
$GNGGA,073316.000,4004.717954,N,11614.146549,E,1,14,1.142,33.513,M,0,M,,*59
$GNGLL,4004.717954,N,11614.146549,E,073316.000,A,A*46
$GNGSA,A,3,5,6,9,17,2,12,,,,,,,1.952,1.142,1.582*26
$GNGSA,A,3,161,162,163,164,165,166,168,169,,,,,1.952,1.142,1.582*2D
$GPGSV,2,1,8,2,61,315,31,5,41,230,48,6,62,51,49,9,36,73,43*4B
$GPGSV,2,2,8,12,32,267,44,17,27,143,40,23,12,40,,25,18,307,*7D
$BDGSV,2,1,8,161,36,146,40,162,31,229,34,163,43,188,41,164,25,124,36*5F
$BDGSV,2,2,8,165,16,248,38,166,67,200,44,168,67,127,45,169,38,211,36*5B
$GNGGA,073317.000,4004.717953,N,11614.146551,E,1,14,1.142,33.516,M,0,M,,*53
$GNGLL,4004.717953,N,11614.146551,E,073317.000,A,A*49
$GNGSA,A,3,5,6,9,17,2,12,,,,,,,1.952,1.142,1.582*26
$GNGSA,A,3,161,162,163,164,165,166,168,169,,,,,1.952,1.142,1.582*2D
$GPGSV,2,1,8,2,61,315,32,5,41,230,45,6,62,51,45,9,36,73,42*48
$GPGSV,2,2,8,12,32,267,43,17,27,143,39,23,12,40,,25,18,307,*74
$BDGSV,2,1,8,161,36,146,40,162,31,229,35,163,43,188,42,164,25,124,37*5C
$BDGSV,2,2,8,165,16,248,37,166,67,200,43,168,67,127,44,169,38,211,36*52
$GNGGA,073318.000,4004.717953,N,11614.146556,E,1,14,1.142,33.525,M,0,M,,*5B
$GNGLL,4004.717953,N,11614.146556,E,073318.000,A,A*41
$GNGSA,A,3,5,6,9,17,2,12,,,,,,,1.951,1.142,1.582*25
$GNGSA,A,3,161,162,163,164,165,166,168,169,,,,,1.951,1.142,1.582*2E
$GPGSV,2,1,8,2,61,315,32,5,41,230,45,6,62,52,46,9,36,73,41*4B
$GPGSV,2,2,8,12,32,267,42,17,27,143,38,23,12,40,,25,18,307,*74
$BDGSV,2,1,8,161,36,146,40,162,31,229,36,163,43,188,42,164,25,124,36*5E
$BDGSV,2,2,8,165,16,248,37,166,67,200,43,168,67,127,43,169,38,211,36*55
$GNGGA,073319.000,4004.717950,N,11614.146563,E,1,14,1.142,33.541,M,0,M,,*5D
$GNGLL,4004.717950,N,11614.146563,E,073319.000,A,A*45
$GNGSA,A,3,5,6,9,17,2,12,,,,,,,1.951,1.142,1.582*25
$GNGSA,A,3,161,162,163,164,165,166,168,169,,,,,1.951,1.142,1.582*2E
$GPGSV,2,1,8,2,61,315,32,5,41,230,47,6,62,52,47,9,36,73,42*4B
$GPGSV,2,2,8,12,32,267,43,17,27,143,39,23,12,40,,25,18,307,*74
$BDGSV,2,1,8,161,36,146,40,162,31,229,36,163,43,188,42,164,25,124,37*5F
$BDGSV,2,2,8,165,16,248,37,166,67,200,43,168,67,127,44,169,38,211,37*53
$GNGGA,073320.000,4004.717949,N,11614.146572,E,1,14,1.142,33.556,M,0,M,,*59
$GNGLL,4004.717949,N,11614.146572,E,073320.000,A,A*47
$GNGSA,A,3,5,6,9,17,2,12,,,,,,,1.951,1.142,1.582*25
$GNGSA,A,3,161,162,163,164,165,166,168,169,,,,,1.951,1.142,1.582*2E
$GPGSV,2,1,8,2,61,315,32,5,41,230,47,6,62,52,49,9,36,73,43*44
$GPGSV,2,2,8,12,32,267,44,17,27,143,39,23,12,40,,25,18,307,*73
$BDGSV,2,1,8,161,36,146,40,162,31,229,36,163,43,188,42,164,25,124,37*5F
$BDGSV,2,2,8,165,16,248,37,166,67,200,44,168,67,127,45,169,38,211,37*55
$GNGGA,073321.000,4004.717949,N,11614.146580,E,1,14,1.142,33.567,M,0,M,,*57
$GNGLL,4004.717949,N,11614.146580,E,073321.000,A,A*4B
$GNGSA,A,3,5,6,9,17,2,12,,,,,,,1.951,1.142,1.582*25
$GNGSA,A,3,161,162,163,164,165,166,168,169,,,,,1.951,1.142,1.582*2E
$GPGSV,2,1,8,2,61,315,32,5,41,230,48,6,62,52,49,9,36,73,43*4B
$GPGSV,2,2,8,12,32,267,44,17,27,143,39,23,12,40,,25,18,307,*73
$BDGSV,2,1,8,161,36,146,41,162,31,229,36,163,43,188,42,164,25,124,37*5E
$BDGSV,2,2,8,165,16,248,37,166,67,200,44,168,67,127,45,169,38,211,37*55
$GNGGA,073322.000,4004.717951,N,11614.146589,E,1,14,1.142,33.582,M,0,M,,*5F
$GNGLL,4004.717951,N,11614.146589,E,073322.000,A,A*48
$GNGSA,A,3,5,6,9,17,2,12,,,,,,,1.951,1.142,1.582*25
$GNGSA,A,3,161,162,163,164,165,166,168,169,,,,,1.951,1.142,1.582*2E
$GPGSV,2,1,8,2,61,315,32,5,41,230,49,6,62,52,50,9,36,73,43*42
$GPGSV,2,2,8,12,32,267,44,17,27,143,39,23,12,40,,25,18,307,*73
$BDGSV,2,1,8,161,36,146,41,162,31,229,36,163,43,188,43,164,25,124,37*5F
$BDGSV,2,2,8,165,16,248,37,166,67,200,45,168,67,127,45,169,38,211,38*5B
$GNGGA,073323.000,4004.717952,N,11614.146600,E,1,14,1.142,33.597,M,0,M,,*5B
$GNGLL,4004.717952,N,11614.146600,E,073323.000,A,A*48
$GNGSA,A,3,5,6,9,17,2,12,,,,,,,1.951,1.142,1.582*25
$GNGSA,A,3,161,162,163,164,165,166,168,169,,,,,1.951,1.142,1.582*2E
$GPGSV,2,1,8,2,61,315,32,5,41,230,49,6,62,52,50,9,36,73,42*43
$GPGSV,2,2,8,12,32,267,45,17,27,143,38,23,12,40,,25,18,307,*73
$BDGSV,2,1,8,161,36,146,40,162,31,229,36,163,43,188,43,164,25,124,37*5E
$BDGSV,2,2,8,165,16,248,37,166,67,200,45,168,67,127,46,169,38,211,38*58
$GNGGA,073324.000,4004.717955,N,11614.146606,E,1,14,1.142,33.606,M,0,M,,*56
$GNGLL,4004.717955,N,11614.146606,E,073324.000,A,A*4E
$GNGSA,A,3,5,6,9,17,2,12,,,,,,,1.951,1.142,1.582*25
$GNGSA,A,3,161,162,163,164,165,166,168,169,,,,,1.951,1.142,1.582*2E
$GPGSV,2,1,8,2,61,315,32,5,41,230,49,6,62,52,50,9,36,73,43*42
$GPGSV,2,2,8,12,32,267,44,17,27,143,38,23,12,40,,25,18,307,*72
$BDGSV,2,1,8,161,36,146,41,162,31,229,36,163,43,188,43,164,25,124,37*5F
$BDGSV,2,2,8,165,16,248,37,166,67,200,45,168,67,127,46,169,38,211,38*58
$GNGGA,073325.000,4004.717956,N,11614.146613,E,1,14,1.142,33.612,M,0,M,,*55
$GNGLL,4004.717956,N,11614.146613,E,073325.000,A,A*48
$GNGSA,A,3,5,6,9,17,2,12,,,,,,,1.951,1.142,1.581*26
$GNGSA,A,3,161,162,163,164,165,166,168,169,,,,,1.951,1.142,1.581*2D
$GPGSV,2,1,8,2,61,315,32,5,41,230,49,6,62,52,50,9,36,73,43*42
$GPGSV,2,2,8,12,32,267,44,17,27,143,38,23,12,40,,25,18,307,*72
$BDGSV,2,1,8,161,36,146,41,162,31,229,37,163,43,188,43,164,25,124,38*51
$BDGSV,2,2,8,165,16,248,37,166,67,200,46,168,67,127,45,169,38,211,39*59
$GNGGA,073326.000,4004.717958,N,11614.146622,E,1,14,1.142,33.613,M,0,M,,*5B
$GNGLL,4004.717958,N,11614.146622,E,073326.000,A,A*47
$GNGSA,A,3,5,6,9,17,2,12,,,,,,,1.951,1.142,1.581*26
$GNGSA,A,3,161,162,163,164,165,166,168,169,,,,,1.951,1.142,1.581*2D
$GPGSV,2,1,8,2,61,315,32,5,41,230,48,6,62,52,50,9,36,73,43*43
$GPGSV,2,2,8,12,32,267,44,17,27,143,38,23,12,40,,25,18,307,*72
$BDGSV,2,1,8,161,36,146,41,162,31,229,37,163,43,188,43,164,25,124,38*51
$BDGSV,2,2,8,165,16,248,36,166,67,200,46,168,67,127,45,169,38,211,39*58
$GNGGA,073327.000,4004.717959,N,11614.146633,E,1,14,1.142,33.622,M,0,M,,*59
$GNGLL,4004.717959,N,11614.146633,E,073327.000,A,A*47
$GNGSA,A,3,5,6,9,17,2,12,,,,,,,1.951,1.142,1.581*26
$GNGSA,A,3,161,162,163,164,165,166,168,169,,,,,1.951,1.142,1.581*2D
$GPGSV,2,1,8,2,62,315,32,5,41,230,49,6,62,52,50,9,36,73,43*41
$GPGSV,2,2,8,12,32,267,44,17,27,143,38,23,12,40,,25,18,307,*72
$BDGSV,2,1,8,161,36,146,41,162,31,229,37,163,43,188,43,164,25,124,40*5E
$BDGSV,2,2,8,165,16,248,37,166,67,200,46,168,67,127,45,169,38,211,39*59
$GNGGA,073328.000,4004.717957,N,11614.146644,E,1,14,1.142,33.627,M,0,M,,*5D
$GNGLL,4004.717957,N,11614.146644,E,073328.000,A,A*46
$GNGSA,A,3,5,6,9,17,2,12,,,,,,,1.951,1.142,1.581*26
$GNGSA,A,3,161,162,163,164,165,166,168,169,,,,,1.951,1.142,1.581*2D
$GPGSV,2,1,8,2,62,315,33,5,41,230,49,6,62,52,50,9,36,73,43*40
$GPGSV,2,2,8,12,32,267,44,17,27,143,38,23,12,40,,25,18,307,*72
$BDGSV,2,1,8,161,36,146,42,162,31,229,37,163,43,188,44,164,25,124,38*55
$BDGSV,2,2,8,165,16,248,37,166,67,200,46,168,67,127,45,169,38,211,38*58
$GNGGA,073329.000,4004.717952,N,11614.146654,E,1,14,1.142,33.631,M,0,M,,*5F
$GNGLL,4004.717952,N,11614.146654,E,073329.000,A,A*43
$GNGSA,A,3,5,6,9,17,2,12,,,,,,,1.950,1.142,1.581*27
$GNGSA,A,3,161,162,163,164,165,166,168,169,,,,,1.950,1.142,1.581*2C
$GPGSV,2,1,8,2,62,315,33,5,41,230,48,6,62,52,50,9,36,73,43*41
$GPGSV,2,2,8,12,32,267,45,17,27,143,38,23,12,40,,25,18,307,*73
$BDGSV,2,1,8,161,36,146,42,162,31,229,38,163,43,188,43,164,25,124,38*5D
$BDGSV,2,2,8,165,16,248,36,166,67,200,46,168,67,127,46,169,38,211,38*5A
$GNGGA,073330.000,4004.717892,N,11614.146661,E,1,14,1.142,33.641,M,0,M,,*5B
$GNGLL,4004.717892,N,11614.146661,E,073330.000,A,A*40
$GNGSA,A,3,5,6,9,17,2,12,,,,,,,1.950,1.142,1.581*27
$GNGSA,A,3,161,162,163,164,165,166,168,169,,,,,1.950,1.142,1.581*2C
$GPGSV,2,1,8,2,62,315,34,5,41,230,39,6,62,52,50,9,36,73,42*41
$GPGSV,2,2,8,12,32,267,44,17,27,143,38,23,12,40,,25,18,307,*72
$BDGSV,2,1,8,161,36,146,42,162,31,229,38,163,43,188,43,164,25,124,33*56
$BDGSV,2,2,8,165,16,248,36,166,67,200,46,168,67,127,45,169,38,211,39*58
$GNGGA,073331.000,4004.717865,N,11614.146670,E,1,14,1.142,33.649,M,0,M,,*5A
$GNGLL,4004.717865,N,11614.146670,E,073331.000,A,A*49
$GNGSA,A,3,5,6,9,17,2,12,,,,,,,1.950,1.142,1.581*27
$GNGSA,A,3,161,162,163,164,165,166,168,169,,,,,1.950,1.142,1.581*2C
$GPGSV,2,1,8,2,62,315,33,5,41,230,44,6,62,52,46,9,36,73,41*48
$GPGSV,2,2,8,12,32,267,42,17,27,143,37,23,12,40,,25,18,307,*7B
$BDGSV,2,1,8,161,36,146,41,162,31,229,37,163,43,188,43,164,25,124,33*5A
$BDGSV,2,2,8,165,16,248,36,166,67,200,43,168,67,127,43,169,38,211,38*5A
$GNGGA,073332.000,4004.717818,N,11614.146678,E,1,14,1.142,33.655,M,0,M,,*56
$GNGLL,4004.717818,N,11614.146678,E,073332.000,A,A*48
$GNGSA,A,3,5,6,9,17,2,12,,,,,,,1.950,1.142,1.581*27
$GNGSA,A,3,161,162,163,164,165,166,168,169,,,,,1.950,1.142,1.581*2C
$GPGSV,2,1,8,2,62,315,33,5,41,230,46,6,62,52,48,9,36,73,42*47
$GPGSV,2,2,8,12,32,267,43,17,27,143,37,23,12,40,,25,18,307,*7A
$BDGSV,2,1,8,161,36,146,41,162,31,229,37,163,43,188,43,164,25,124,33*5A
$BDGSV,2,2,8,165,16,248,37,166,67,200,44,168,67,127,44,169,38,211,38*5B
$GNGGA,073333.000,4004.717927,N,11614.146683,E,1,14,1.142,33.661,M,0,M,,*59
$GNGLL,4004.717927,N,11614.146683,E,073333.000,A,A*40
$GNGSA,A,3,5,6,9,17,2,12,,,,,,,1.950,1.142,1.581*27
$GNGSA,A,3,161,162,163,164,165,166,168,169,,,,,1.950,1.142,1.581*2C
$GPGSV,2,1,8,2,62,315,34,5,41,230,47,6,62,52,49,9,36,73,41*43
$GPGSV,2,2,8,12,32,267,44,17,27,143,37,23,12,40,,25,18,307,*7D
$BDGSV,2,1,8,161,36,146,41,162,31,229,37,163,43,188,43,164,25,124,38*51
$BDGSV,2,2,8,165,16,248,37,166,67,200,45,168,67,127,45,169,38,211,39*5A
$GNGGA,073334.000,4004.717922,N,11614.146683,E,1,14,1.142,33.661,M,0,M,,*5B
$GNGLL,4004.717922,N,11614.146683,E,073334.000,A,A*42
$GNGSA,A,3,5,6,9,17,2,12,,,,,,,1.950,1.142,1.580*26
$GNGSA,A,3,161,162,163,164,165,166,168,169,,,,,1.950,1.142,1.580*2D
$GPGSV,2,1,8,2,62,315,34,5,41,230,47,6,62,52,49,9,36,73,41*43
$GPGSV,2,2,8,12,32,267,45,17,27,143,38,23,12,40,,25,18,307,*73
$BDGSV,2,1,8,161,36,146,41,162,31,229,37,163,43,188,43,164,25,124,37*5E
$BDGSV,2,2,8,165,16,248,37,166,67,200,45,168,67,127,46,169,38,211,39*59
$GNGGA,073335.000,4004.717920,N,11614.146684,E,1,14,1.142,33.657,M,0,M,,*5A
$GNGLL,4004.717920,N,11614.146684,E,073335.000,A,A*46
$GNGSA,A,3,5,6,9,17,2,12,,,,,,,1.950,1.142,1.580*26
$GNGSA,A,3,161,162,163,164,165,166,168,169,,,,,1.950,1.142,1.580*2D
$GPGSV,2,1,8,2,62,315,33,5,41,230,47,6,62,52,50,9,36,73,42*4F
$GPGSV,2,2,8,12,32,267,45,17,27,143,38,23,12,40,,25,18,307,*73
$BDGSV,2,1,8,161,36,146,41,162,31,229,37,163,43,188,43,164,25,124,37*5E
$BDGSV,2,2,8,165,16,248,37,166,67,200,45,168,67,127,46,169,38,211,39*59
$GNGGA,073336.000,4004.717919,N,11614.146688,E,1,14,1.142,33.655,M,0,M,,*5D
$GNGLL,4004.717919,N,11614.146688,E,073336.000,A,A*43
$GNGSA,A,3,5,6,9,17,2,12,,,,,,,1.950,1.142,1.580*26
$GNGSA,A,3,161,162,163,164,165,166,168,169,,,,,1.950,1.142,1.580*2D
$GPGSV,2,1,8,2,62,315,34,5,41,230,47,6,62,52,50,9,36,73,42*48
$GPGSV,2,2,8,12,32,267,45,17,27,143,38,23,12,40,,25,18,307,*73
$BDGSV,2,1,8,161,36,146,41,162,31,229,37,163,43,188,43,164,25,124,39*50
$BDGSV,2,2,8,165,16,248,37,166,67,200,45,168,67,127,46,169,38,211,39*59
$GNGGA,073337.000,4004.717918,N,11614.146693,E,1,14,1.142,33.654,M,0,M,,*56
$GNGLL,4004.717918,N,11614.146693,E,073337.000,A,A*49
$GNGSA,A,3,5,6,9,17,2,12,,,,,,,1.950,1.142,1.580*26
$GNGSA,A,3,161,162,163,164,165,166,168,169,,,,,1.950,1.142,1.580*2D
$GPGSV,2,1,8,2,62,315,34,5,41,230,48,6,62,52,50,9,36,73,43*46
$GPGSV,2,2,8,12,32,267,45,17,27,143,38,23,12,40,,25,18,307,*73
$BDGSV,2,1,8,161,36,146,41,162,31,229,37,163,43,188,43,164,25,124,39*50
$BDGSV,2,2,8,165,16,248,37,166,67,200,46,168,67,127,46,169,38,211,39*5A
$GNGGA,073338.000,4004.717919,N,11614.146699,E,1,14,1.142,33.652,M,0,M,,*54
$GNGLL,4004.717919,N,11614.146699,E,073338.000,A,A*4D
$GNGSA,A,3,5,6,9,17,2,12,,,,,,,1.950,1.142,1.580*26
$GNGSA,A,3,161,162,163,164,165,166,168,169,,,,,1.950,1.142,1.580*2D
$GPGSV,2,1,8,2,62,315,34,5,41,231,48,6,62,52,50,9,36,73,43*47
$GPGSV,2,2,8,12,32,267,45,17,27,143,37,23,12,40,,25,18,307,*7C
$BDGSV,2,1,8,161,36,146,41,162,31,229,37,163,43,188,43,164,25,124,33*5A
$BDGSV,2,2,8,165,16,248,37,166,67,200,46,168,67,127,46,169,38,211,40*54
$GNGGA,073339.000,4004.717919,N,11614.146705,E,1,14,1.142,33.651,M,0,M,,*52
$GNGLL,4004.717919,N,11614.146705,E,073339.000,A,A*48
$GNGSA,A,3,5,6,9,17,2,12,,,,,,,1.950,1.142,1.580*26
$GNGSA,A,3,161,162,163,164,165,166,168,169,,,,,1.950,1.142,1.580*2D
$GPGSV,2,1,8,2,62,315,34,5,41,231,47,6,62,52,50,9,36,73,43*48
$GPGSV,2,2,8,12,32,267,45,17,27,143,38,23,12,40,,25,18,307,*73
$BDGSV,2,1,8,161,36,146,41,162,31,229,37,163,43,188,43,164,25,124,33*5A
$BDGSV,2,2,8,165,16,248,37,166,67,200,46,168,67,127,46,169,38,211,40*54
$GNGGA,073340.000,4004.717920,N,11614.146711,E,1,14,1.142,33.647,M,0,M,,*54
$GNGLL,4004.717920,N,11614.146711,E,073340.000,A,A*49
$GNGSA,A,3,5,6,9,17,2,12,,,,,,,1.949,1.142,1.580*2E
$GNGSA,A,3,161,162,163,164,165,166,168,169,,,,,1.949,1.142,1.580*25
$GPGSV,2,1,8,2,62,315,34,5,41,231,46,6,62,52,49,9,36,73,43*41
$GPGSV,2,2,8,12,32,267,44,17,27,143,38,23,12,40,,25,18,307,*72
$BDGSV,2,1,8,161,36,146,41,162,31,229,37,163,43,188,43,164,25,124,40*5E
$BDGSV,2,2,8,165,16,248,37,166,67,200,46,168,67,127,46,169,38,211,40*54
$GNGGA,073341.000,4004.717923,N,11614.146716,E,1,14,1.142,33.639,M,0,M,,*58
$GNGLL,4004.717923,N,11614.146716,E,073341.000,A,A*4C
$GNGSA,A,3,5,6,9,17,2,12,,,,,,,1.949,1.142,1.580*2E
$GNGSA,A,3,161,162,163,164,165,166,168,169,,,,,1.949,1.142,1.580*25
$GPGSV,2,1,8,2,62,315,34,5,41,231,46,6,62,52,49,9,36,73,43*41
$GPGSV,2,2,8,12,32,267,45,17,27,143,38,23,12,40,,25,18,307,*73
$BDGSV,2,1,8,161,36,146,42,162,31,229,37,163,43,188,43,164,25,124,38*52
$BDGSV,2,2,8,165,16,248,37,166,67,200,46,168,67,127,46,169,38,211,40*54
$GNGGA,073342.000,4004.717926,N,11614.146723,E,1,14,1.142,33.627,M,0,M,,*57
$GNGLL,4004.717926,N,11614.146723,E,073342.000,A,A*4C
$GNGSA,A,3,5,6,9,17,2,12,,,,,,,1.949,1.142,1.580*2E
$GNGSA,A,3,161,162,163,164,165,166,168,169,,,,,1.949,1.142,1.580*25
$GPGSV,2,1,8,2,62,315,34,5,41,231,47,6,62,52,50,9,36,73,43*48
$GPGSV,2,2,8,12,32,267,45,17,27,143,38,23,12,40,,25,18,307,*73
$BDGSV,2,1,8,161,36,146,42,162,31,229,37,163,43,188,43,164,25,124,39*53
$BDGSV,2,2,8,165,16,248,37,166,67,200,46,168,67,127,46,169,38,211,40*54
$GNGGA,073343.000,4004.717929,N,11614.146729,E,1,14,1.142,33.612,M,0,M,,*55
$GNGLL,4004.717929,N,11614.146729,E,073343.000,A,A*48
$GNGSA,A,3,5,6,9,17,2,12,,,,,,,1.949,1.142,1.580*2E
$GNGSA,A,3,161,162,163,164,165,166,168,169,,,,,1.949,1.142,1.580*25
$GPGSV,2,1,8,2,62,315,34,5,41,231,47,6,62,52,50,9,36,73,44*4F
$GPGSV,2,2,8,12,32,267,45,17,27,143,38,23,12,40,,25,18,307,*73
$BDGSV,2,1,8,161,36,146,42,162,31,229,37,163,43,188,44,164,25,124,39*54
$BDGSV,2,2,8,165,16,248,36,166,67,200,46,168,67,127,46,169,38,211,40*55
$GNGGA,073344.000,4004.717935,N,11614.146735,E,1,14,1.142,33.595,M,0,M,,*5E
$GNGLL,4004.717935,N,11614.146735,E,073344.000,A,A*4F
$GNGSA,A,3,5,6,9,17,2,12,,,,,,,1.949,1.142,1.579*28
$GNGSA,A,3,161,162,163,164,165,166,168,169,,,,,1.949,1.142,1.579*23
$GPGSV,2,1,8,2,62,315,34,5,41,231,47,6,62,52,51,9,36,73,44*4E
$GPGSV,2,2,8,12,32,267,45,17,27,143,38,23,12,40,,25,18,307,*73
$BDGSV,2,1,8,161,36,146,41,162,31,229,37,163,43,188,43,164,25,124,32*5B
$BDGSV,2,2,8,165,16,248,36,166,67,200,46,168,67,127,46,169,38,211,40*55
$GNGGA,073345.000,4004.717941,N,11614.146740,E,1,14,1.142,33.575,M,0,M,,*50
$GNGLL,4004.717941,N,11614.146740,E,073345.000,A,A*4F
$GNGSA,A,3,5,6,9,17,2,12,,,,,,,1.949,1.142,1.579*28
$GNGSA,A,3,161,162,163,164,165,166,168,169,,,,,1.949,1.142,1.579*23
$GPGSV,2,1,8,2,62,315,34,5,41,231,47,6,62,52,50,9,36,73,44*4F
$GPGSV,2,2,8,12,32,267,45,17,27,143,38,23,12,40,,25,18,307,*73
$BDGSV,2,1,8,161,36,146,41,162,31,229,37,163,43,188,44,164,25,124,38*56
$BDGSV,2,2,8,165,16,248,36,166,67,200,46,168,67,127,46,169,38,211,40*55
$GNGGA,073346.000,4004.717948,N,11614.146745,E,1,14,1.142,33.554,M,0,M,,*5C
$GNGLL,4004.717948,N,11614.146745,E,073346.000,A,A*40
$GNGSA,A,3,5,6,9,17,2,12,,,,,,,1.949,1.142,1.579*28
$GNGSA,A,3,161,162,163,164,165,166,168,169,,,,,1.949,1.142,1.579*23
$GPGSV,2,1,8,2,62,315,35,5,41,231,47,6,62,52,51,9,36,73,44*4F
$GPGSV,2,2,8,12,32,267,45,17,27,143,38,23,12,40,,25,18,307,*73
$BDGSV,2,1,8,161,36,146,42,162,31,229,37,163,43,188,43,164,25,124,39*53
$BDGSV,2,2,8,165,16,248,37,166,67,200,46,168,67,127,46,169,38,211,40*54
$GNGGA,073347.000,4004.717952,N,11614.146748,E,1,14,1.142,33.547,M,0,M,,*59
$GNGLL,4004.717952,N,11614.146748,E,073347.000,A,A*47
$GNGSA,A,3,5,6,9,17,2,12,,,,,,,1.949,1.142,1.579*28
$GNGSA,A,3,161,162,163,164,165,166,168,169,,,,,1.949,1.142,1.579*23
$GPGSV,2,1,8,2,62,315,34,5,41,231,47,6,62,52,51,9,36,73,44*4E
$GPGSV,2,2,8,12,32,267,45,17,27,143,38,23,12,40,,25,18,307,*73
$BDGSV,2,1,8,161,36,146,41,162,31,229,37,163,43,188,43,164,25,124,39*50
$BDGSV,2,2,8,165,16,248,37,166,67,200,46,168,67,127,47,169,38,211,41*54
$GNGGA,073348.000,4004.717959,N,11614.146752,E,1,14,1.142,33.524,M,0,M,,*53
$GNGLL,4004.717959,N,11614.146752,E,073348.000,A,A*48
$GNGSA,A,3,5,6,9,17,2,12,,,,,,,1.949,1.142,1.579*28
$GNGSA,A,3,161,162,163,164,165,166,168,169,,,,,1.949,1.142,1.579*23
$GPGSV,2,1,8,2,62,315,34,5,41,231,46,6,62,52,51,9,36,73,44*4F
$GPGSV,2,2,8,12,32,267,45,17,27,143,38,23,12,40,,25,18,307,*73
$BDGSV,2,1,8,161,36,146,41,162,31,229,37,163,43,188,43,164,25,124,39*50
$BDGSV,2,2,8,165,16,248,37,166,67,200,46,168,67,127,47,169,38,211,41*54
$GNGGA,073349.000,4004.717966,N,11614.146757,E,1,14,1.142,33.501,M,0,M,,*5C
$GNGLL,4004.717966,N,11614.146757,E,073349.000,A,A*40
$GNGSA,A,3,5,6,9,17,2,12,,,,,,,1.949,1.142,1.579*28
$GNGSA,A,3,161,162,163,164,165,166,168,169,,,,,1.949,1.142,1.579*23
$GPGSV,2,1,8,2,62,315,34,5,41,231,46,6,62,52,51,9,36,73,44*4F
$GPGSV,2,2,8,12,32,267,45,17,27,143,39,23,12,40,,25,18,307,*72
$BDGSV,2,1,8,161,36,146,41,162,31,229,37,163,43,188,43,164,25,124,39*50
$BDGSV,2,2,8,165,16,248,37,166,67,200,46,168,67,127,47,169,38,211,41*54
$GNGGA,073350.000,4004.717973,N,11614.146761,E,1,14,1.142,33.478,M,0,M,,*5A
$GNGLL,4004.717973,N,11614.146761,E,073350.000,A,A*49
$GNGSA,A,3,5,6,9,17,2,12,,,,,,,1.949,1.142,1.579*28
$GNGSA,A,3,161,162,163,164,165,166,168,169,,,,,1.949,1.142,1.579*23
$GPGSV,2,1,8,2,62,315,34,5,41,231,46,6,62,52,51,9,36,73,43*48
$GPGSV,2,2,8,12,32,267,45,17,27,143,38,23,12,40,,25,18,307,*73
$BDGSV,2,1,8,161,36,146,41,162,31,229,37,163,43,188,43,164,25,124,39*50
$BDGSV,2,2,8,165,16,248,37,166,67,200,46,168,67,127,47,169,38,211,41*54
$GNGGA,073351.000,4004.717981,N,11614.146763,E,1,14,1.142,33.449,M,0,M,,*56
$GNGLL,4004.717981,N,11614.146763,E,073351.000,A,A*47
$GNGSA,A,3,5,6,9,17,2,12,,,,,,,1.949,1.142,1.579*28
$GNGSA,A,3,161,162,163,164,165,166,168,169,,,,,1.949,1.142,1.579*23
$GPGSV,2,1,8,2,62,315,34,5,41,231,46,6,62,52,51,9,36,73,44*4F
$GPGSV,2,2,8,12,32,267,45,17,27,143,38,23,12,40,,25,18,307,*73
$BDGSV,2,1,8,161,36,146,41,162,31,229,37,163,43,188,43,164,25,124,39*50
$BDGSV,2,2,8,165,16,248,37,166,67,200,46,168,67,127,47,169,38,211,41*54
$GNGGA,073352.000,4004.717989,N,11614.146767,E,1,14,1.142,33.420,M,0,M,,*56
$GNGLL,4004.717989,N,11614.146767,E,073352.000,A,A*48
$GNGSA,A,3,5,6,9,17,2,12,,,,,,,1.948,1.142,1.579*29
$GNGSA,A,3,161,162,163,164,165,166,168,169,,,,,1.948,1.142,1.579*22
$GPGSV,2,1,8,2,62,315,34,5,41,231,46,6,62,52,51,9,36,73,44*4F
$GPGSV,2,2,8,12,32,267,45,17,27,143,37,23,12,40,,25,18,307,*7C
$BDGSV,2,1,8,161,36,146,41,162,31,229,37,163,43,188,43,164,25,124,32*5B
$BDGSV,2,2,8,165,16,248,37,166,67,200,46,168,67,127,47,169,38,211,41*54
$GNGGA,073353.000,4004.717994,N,11614.146775,E,1,14,1.142,33.389,M,0,M,,*5C
$GNGLL,4004.717994,N,11614.146775,E,073353.000,A,A*46
$GNGSA,A,3,5,6,9,17,2,12,,,,,,,1.948,1.142,1.578*28
$GNGSA,A,3,161,162,163,164,165,166,168,169,,,,,1.948,1.142,1.578*23
$GPGSV,2,1,8,2,62,315,34,5,41,231,44,6,62,52,51,9,36,73,45*4C
$GPGSV,2,2,8,12,32,267,45,17,27,143,36,23,12,40,,25,18,307,*7D
$BDGSV,2,1,8,161,36,146,41,162,31,229,37,163,43,188,43,164,25,124,32*5B
$BDGSV,2,2,8,165,16,248,37,166,67,200,46,168,67,127,47,169,38,211,41*54
$GNGGA,073354.000,4004.717999,N,11614.146779,E,1,14,1.142,33.364,M,0,M,,*59
$GNGLL,4004.717999,N,11614.146779,E,073354.000,A,A*40
$GNGSA,A,3,5,6,9,17,2,12,,,,,,,1.948,1.142,1.578*28
$GNGSA,A,3,161,162,163,164,165,166,168,169,,,,,1.948,1.142,1.578*23
$GPGSV,2,1,8,2,62,315,34,5,41,231,44,6,62,52,49,9,36,73,44*44
$GPGSV,2,2,8,12,32,267,44,17,27,143,36,23,12,40,,25,18,307,*7C
$BDGSV,2,1,8,161,36,146,40,162,31,229,37,163,43,188,43,164,25,124,38*50
$BDGSV,2,2,8,165,16,248,37,166,67,200,46,168,67,127,47,169,38,211,41*54
$GNGGA,073355.000,4004.718006,N,11614.146772,E,1,14,1.142,33.344,M,0,M,,*51
$GNGLL,4004.718006,N,11614.146772,E,073355.000,A,A*4A
$GNGSA,A,3,5,6,9,17,2,12,,,,,,,1.948,1.142,1.578*28
$GNGSA,A,3,161,162,163,164,165,166,168,169,,,,,1.948,1.142,1.578*23
$GPGSV,2,1,8,2,62,315,34,5,41,231,45,6,62,52,50,9,36,73,44*4D
$GPGSV,2,2,8,12,32,267,44,17,27,143,37,23,12,40,,25,18,307,*7D
$BDGSV,2,1,8,161,36,146,41,162,31,229,37,163,43,188,43,164,25,124,39*50
$BDGSV,2,2,8,165,16,248,37,166,67,200,46,168,67,127,47,169,38,211,41*54
$GNGGA,073356.000,4004.718013,N,11614.146778,E,1,14,1.142,33.326,M,0,M,,*58
$GNGLL,4004.718013,N,11614.146778,E,073356.000,A,A*47
$GNGSA,A,3,5,6,9,17,2,12,,,,,,,1.948,1.142,1.578*28
$GNGSA,A,3,161,162,163,164,165,166,168,169,,,,,1.948,1.142,1.578*23
$GPGSV,2,1,8,2,62,315,33,5,41,231,45,6,62,52,50,9,36,73,44*4A
$GPGSV,2,2,8,12,32,267,45,17,27,143,37,23,12,40,,25,18,307,*7C
$BDGSV,2,1,8,161,36,146,41,162,31,229,37,163,43,188,43,164,25,124,40*5E
$BDGSV,2,2,8,165,16,248,37,166,67,200,46,168,67,127,46,169,38,211,41*55
$GNGGA,073357.000,4004.718019,N,11614.146781,E,1,14,1.142,33.311,M,0,M,,*51
$GNGLL,4004.718019,N,11614.146781,E,073357.000,A,A*4A
$GNGSA,A,3,5,6,9,17,2,12,,,,,,,1.948,1.142,1.578*28
$GNGSA,A,3,161,162,163,164,165,166,168,169,,,,,1.948,1.142,1.578*23
$GPGSV,2,1,8,2,62,315,33,5,41,231,45,6,62,52,51,9,36,73,45*4A
$GPGSV,2,2,8,12,32,267,45,17,27,143,37,23,12,40,,25,18,307,*7C
$BDGSV,2,1,8,161,36,146,41,162,31,229,37,163,43,188,43,164,25,124,39*50
$BDGSV,2,2,8,165,16,248,37,166,67,200,46,168,67,127,46,169,38,211,41*55
$GNGGA,073358.000,4004.718022,N,11614.146786,E,1,14,1.142,33.302,M,0,M,,*53
$GNGLL,4004.718022,N,11614.146786,E,073358.000,A,A*4A
$GNGSA,A,3,5,6,9,17,2,12,,,,,,,1.948,1.142,1.578*28
$GNGSA,A,3,161,162,163,164,165,166,168,169,,,,,1.948,1.142,1.578*23
$GPGSV,2,1,8,2,62,315,34,5,41,231,45,6,62,52,50,9,36,73,45*4C
$GPGSV,2,2,8,12,32,267,45,17,27,143,38,23,12,40,,25,18,307,*73
$BDGSV,2,1,8,161,36,146,41,162,31,229,37,163,43,188,42,164,25,124,39*51
$BDGSV,2,2,8,165,16,248,37,166,67,200,46,168,67,127,47,169,38,211,42*57
$GNGGA,073359.000,4004.718023,N,11614.146790,E,1,14,1.142,33.297,M,0,M,,*59
$GNGLL,4004.718023,N,11614.146790,E,073359.000,A,A*4D
$GNGSA,A,3,5,6,9,17,2,12,,,,,,,1.948,1.142,1.578*28
$GNGSA,A,3,161,162,163,164,165,166,168,169,,,,,1.948,1.142,1.578*23
$GPGSV,2,1,8,2,62,315,34,5,41,231,45,6,62,52,51,9,36,73,45*4D
$GPGSV,2,2,8,12,32,267,45,17,27,143,38,23,12,40,,25,18,307,*73
$BDGSV,2,1,8,161,36,146,41,162,31,229,37,163,43,188,42,164,25,124,39*51
$BDGSV,2,2,8,165,16,248,36,166,67,200,46,168,67,127,47,169,38,211,42*56
$GNGGA,073400.000,4004.718022,N,11614.146795,E,1,14,1.142,33.298,M,0,M,,*59
$GNGLL,4004.718022,N,11614.146795,E,073400.000,A,A*42
$GNGSA,A,3,5,6,9,17,2,12,,,,,,,1.948,1.142,1.578*28
$GNGSA,A,3,161,162,163,164,165,166,168,169,,,,,1.948,1.142,1.578*23
$GPGSV,2,1,8,2,62,315,34,5,41,231,44,6,62,52,50,9,36,73,45*4D
$GPGSV,2,2,8,12,32,267,45,17,27,143,39,23,12,40,,25,18,307,*72
$BDGSV,2,1,8,161,36,146,41,162,31,229,37,163,43,188,43,164,25,124,38*51
$BDGSV,2,2,8,165,16,248,36,166,67,200,46,168,67,127,47,169,38,211,42*56
$GNGGA,073401.000,4004.718021,N,11614.146799,E,1,14,1.142,33.303,M,0,M,,*54
$GNGLL,4004.718021,N,11614.146799,E,073401.000,A,A*4C
$GNGSA,A,3,5,6,9,17,2,12,,,,,,,1.948,1.142,1.578*28
$GNGSA,A,3,161,162,163,164,165,166,168,169,,,,,1.948,1.142,1.578*23
$GPGSV,2,1,8,2,62,315,33,5,41,231,44,6,62,52,50,9,36,73,45*4A
$GPGSV,2,2,8,12,32,267,45,17,27,143,39,23,12,40,,25,18,307,*72
$BDGSV,2,1,8,161,36,146,41,162,31,229,36,163,43,188,42,164,25,124,39*50
$BDGSV,2,2,8,165,16,248,37,166,67,200,46,168,67,127,47,169,38,211,42*57
$GNGGA,073402.000,4004.718017,N,11614.146805,E,1,14,1.142,33.303,M,0,M,,*58
$GNGLL,4004.718017,N,11614.146805,E,073402.000,A,A*40
$GNGSA,A,3,5,6,9,17,2,12,,,,,,,1.948,1.142,1.577*27
$GNGSA,A,3,161,162,163,164,165,166,168,169,,,,,1.948,1.142,1.577*2C
$GPGSV,2,1,8,2,62,315,33,5,41,231,45,6,62,52,50,9,36,73,45*4B
$GPGSV,2,2,8,12,32,267,45,17,27,143,40,23,12,40,,25,18,307,*7C
$BDGSV,2,1,8,161,36,146,41,162,31,229,37,163,43,188,43,164,25,124,39*50
$BDGSV,2,2,8,165,16,248,37,166,67,200,46,168,67,128,47,169,38,211,42*58
$GNGGA,073403.000,4004.718016,N,11614.146807,E,1,14,1.142,33.296,M,0,M,,*57
$GNGLL,4004.718016,N,11614.146807,E,073403.000,A,A*42
$GNGSA,A,3,5,6,9,17,2,12,,,,,,,1.947,1.142,1.577*28
$GNGSA,A,3,161,162,163,164,165,166,168,169,,,,,1.947,1.142,1.577*23
$GPGSV,2,1,8,2,62,315,34,5,41,231,45,6,62,52,50,9,36,73,45*4C
$GPGSV,2,2,8,12,32,267,45,17,27,143,39,23,12,40,,25,18,307,*72
$BDGSV,2,1,8,161,36,146,41,162,31,229,37,163,43,188,43,164,25,124,33*5A
$BDGSV,2,2,8,165,16,248,37,166,67,200,46,168,67,128,47,169,38,211,41*5B
$GNGGA,073404.000,4004.718014,N,11614.146810,E,1,14,1.142,33.289,M,0,M,,*5A
$GNGLL,4004.718014,N,11614.146810,E,073404.000,A,A*41
$GNGSA,A,3,5,6,9,17,2,12,,,,,,,1.947,1.142,1.577*28
$GNGSA,A,3,161,162,163,164,165,166,168,169,,,,,1.947,1.142,1.577*23
$GPGSV,2,1,8,2,62,315,34,5,41,231,44,6,62,52,50,9,36,73,45*4D
$GPGSV,2,2,8,12,32,267,45,17,27,143,39,23,12,40,,25,18,307,*72
$BDGSV,2,1,8,161,36,146,41,162,31,229,37,163,43,188,43,164,25,124,33*5A
$BDGSV,2,2,8,165,16,248,37,166,67,200,46,168,67,128,47,169,38,211,42*58
$GNGGA,073405.000,4004.718013,N,11614.146811,E,1,14,1.142,33.285,M,0,M,,*51
$GNGLL,4004.718013,N,11614.146811,E,073405.000,A,A*46
$GNGSA,A,3,5,6,9,17,2,12,,,,,,,1.947,1.142,1.577*28
$GNGSA,A,3,161,162,163,164,165,166,168,169,,,,,1.947,1.142,1.577*23
$GPGSV,2,1,8,2,62,315,34,5,41,231,44,6,62,52,50,9,36,73,45*4D
$GPGSV,2,2,8,12,32,267,44,17,27,143,39,23,12,40,,25,18,307,*73
$BDGSV,2,1,8,161,36,146,41,162,31,229,37,163,43,188,43,164,25,124,39*50
$BDGSV,2,2,8,165,16,248,37,166,67,200,46,168,67,128,47,169,38,211,42*58
$GNGGA,073406.000,4004.718010,N,11614.146813,E,1,14,1.142,33.284,M,0,M,,*52
$GNGLL,4004.718010,N,11614.146813,E,073406.000,A,A*44
$GNGSA,A,3,5,6,9,17,2,12,,,,,,,1.947,1.142,1.577*28
$GNGSA,A,3,161,162,163,164,165,166,168,169,,,,,1.947,1.142,1.577*23
$GPGSV,2,1,8,2,62,315,34,5,41,231,44,6,62,52,51,9,36,73,45*4C
$GPGSV,2,2,8,12,32,267,44,17,27,143,39,23,12,40,,25,18,307,*73
$BDGSV,2,1,8,161,36,146,41,162,31,229,37,163,43,188,43,164,25,124,38*51
$BDGSV,2,2,8,165,16,248,37,166,67,200,46,168,67,128,47,169,38,211,41*5B
$GNGGA,073407.000,4004.718008,N,11614.146814,E,1,14,1.162,33.280,M,0,M,,*5B
$GNGLL,4004.718008,N,11614.146814,E,073407.000,A,A*4B
$GNGSA,A,3,5,6,9,17,2,12,,,,,,,1.959,1.162,1.577*25
$GNGSA,A,3,161,162,163,164,165,166,168,169,,,,,1.959,1.162,1.577*2E
$GPGSV,2,1,8,2,62,315,33,5,41,231,43,6,62,52,49,9,36,73,43*43
$GPGSV,2,2,8,12,32,267,43,17,27,143,39,23,12,40,,25,18,307,*74
$BDGSV,2,1,8,161,36,146,5,162,31,229,37,163,43,188,32,164,25,124,38*67
$BDGSV,2,2,8,165,16,248,35,166,67,200,44,168,67,128,45,169,38,211,41*59
$GNGGA,073408.000,4004.718004,N,11614.146816,E,1,14,1.142,33.276,M,0,M,,*51
$GNGLL,4004.718004,N,11614.146816,E,073408.000,A,A*4A
$GNGSA,A,3,5,6,9,17,2,12,,,,,,,1.947,1.142,1.577*28
$GNGSA,A,3,161,162,163,164,165,166,168,169,,,,,1.947,1.142,1.577*23
$GPGSV,2,1,8,2,62,315,33,5,41,231,43,6,62,52,47,9,36,73,44*4A
$GPGSV,2,2,8,12,32,267,43,17,27,143,39,23,12,40,,25,18,307,*74
$BDGSV,2,1,8,161,36,146,41,162,31,229,37,163,43,188,43,164,25,124,39*50
$BDGSV,2,2,8,165,16,248,35,166,67,200,44,168,67,128,45,169,38,211,41*59
$GNGGA,073409.000,4004.718000,N,11614.146815,E,1,14,1.142,33.276,M,0,M,,*57
$GNGLL,4004.718000,N,11614.146815,E,073409.000,A,A*4C
$GNGSA,A,3,5,6,9,17,2,12,,,,,,,1.947,1.142,1.577*28
$GNGSA,A,3,161,162,163,164,165,166,168,169,,,,,1.947,1.142,1.577*23
$GPGSV,2,1,8,2,62,315,33,5,41,231,44,6,62,52,49,9,36,73,45*42
$GPGSV,2,2,8,12,32,267,44,17,27,143,40,23,12,40,,25,18,307,*7D
$BDGSV,2,1,8,161,36,146,40,162,31,229,37,163,43,188,43,164,25,124,39*51
$BDGSV,2,2,8,165,16,248,36,166,67,200,45,168,67,128,46,169,38,211,41*58
$GNGGA,073410.000,4004.717994,N,11614.146815,E,1,14,1.142,33.283,M,0,M,,*5E
$GNGLL,4004.717994,N,11614.146815,E,073410.000,A,A*4F
$GNGSA,A,3,5,6,9,17,2,12,,,,,,,1.947,1.142,1.577*28
$GNGSA,A,3,161,162,163,164,165,166,168,169,,,,,1.947,1.142,1.577*23
$GPGSV,2,1,8,2,62,315,32,5,41,231,43,6,62,52,49,9,36,73,45*44
$GPGSV,2,2,8,12,32,267,44,17,27,143,40,23,12,40,,25,18,307,*7D
$BDGSV,2,1,8,161,36,146,41,162,31,229,37,163,43,188,43,164,25,124,32*5B
$BDGSV,2,2,8,165,16,248,36,166,67,200,45,168,67,128,47,169,38,211,41*59
$GNGGA,073411.000,4004.717991,N,11614.146815,E,1,14,1.142,33.289,M,0,M,,*50
$GNGLL,4004.717991,N,11614.146815,E,073411.000,A,A*4B
$GNGSA,A,3,5,6,9,17,2,12,,,,,,,1.947,1.142,1.577*28
$GNGSA,A,3,161,162,163,164,165,166,168,169,,,,,1.947,1.142,1.577*23
$GPGSV,2,1,8,2,62,315,32,5,41,231,43,6,62,52,50,9,36,73,46*4F
$GPGSV,2,2,8,12,32,267,44,17,27,143,41,23,12,40,,25,18,307,*7C
$BDGSV,2,1,8,161,36,146,41,162,31,229,37,163,43,188,43,164,25,124,37*5E
$BDGSV,2,2,8,165,16,248,36,166,67,200,45,168,67,128,47,169,38,211,41*59
$GNGGA,073412.000,4004.717988,N,11614.146815,E,1,14,1.142,33.292,M,0,M,,*51
$GNGLL,4004.717988,N,11614.146815,E,073412.000,A,A*40
$GNGSA,A,3,5,6,9,17,2,12,,,,,,,1.947,1.142,1.576*29
$GNGSA,A,3,161,162,163,164,165,166,168,169,,,,,1.947,1.142,1.576*22
$GPGSV,2,1,8,2,62,315,33,5,41,231,43,6,62,52,50,9,36,73,46*4E
$GPGSV,2,2,8,12,32,267,45,17,27,143,41,23,12,40,,25,18,307,*7D
$BDGSV,2,1,8,161,36,146,41,162,31,229,36,163,43,188,43,164,25,124,39*51
$BDGSV,2,2,8,165,16,248,36,166,67,200,45,168,67,128,47,169,38,211,41*59
$GNGGA,073413.000,4004.717985,N,11614.146816,E,1,14,1.142,33.299,M,0,M,,*55
$GNGLL,4004.717985,N,11614.146816,E,073413.000,A,A*4F
$GNGSA,A,3,5,6,9,17,2,12,,,,,,,1.947,1.142,1.576*29
$GNGSA,A,3,161,162,163,164,165,166,168,169,,,,,1.947,1.142,1.576*22
$GPGSV,2,1,8,2,62,315,33,5,41,231,43,6,62,52,50,9,36,73,45*4D
$GPGSV,2,2,8,12,32,267,45,17,27,143,41,23,12,40,,25,18,307,*7D
$BDGSV,2,1,8,161,36,146,36,162,31,229,37,163,43,188,37,164,25,124,38*52
$BDGSV,2,2,8,165,16,248,37,166,67,200,45,168,67,128,47,169,38,211,42*5B
$GNGGA,073414.000,4004.717983,N,11614.146815,E,1,14,1.142,33.302,M,0,M,,*54
$GNGLL,4004.717983,N,11614.146815,E,073414.000,A,A*4D
$GNGSA,A,3,5,6,9,17,2,12,,,,,,,1.947,1.142,1.576*29
$GNGSA,A,3,161,162,163,164,165,166,168,169,,,,,1.947,1.142,1.576*22
$GPGSV,2,1,8,2,62,315,33,5,41,231,43,6,62,52,50,9,36,73,46*4E
$GPGSV,2,2,8,12,32,267,44,17,27,143,41,23,12,40,,25,18,307,*7C
$BDGSV,2,1,8,161,36,146,39,162,31,229,37,163,43,188,40,164,25,124,38*5D
$BDGSV,2,2,8,165,16,248,36,166,67,201,45,168,67,128,47,169,38,211,41*58
$GNGGA,073415.000,4004.717981,N,11614.146814,E,1,14,1.142,33.308,M,0,M,,*5C
$GNGLL,4004.717981,N,11614.146814,E,073415.000,A,A*4F
$GNGSA,A,3,5,6,9,17,2,12,,,,,,,1.946,1.142,1.576*28
$GNGSA,A,3,161,162,163,164,165,166,168,169,,,,,1.946,1.142,1.576*23
$GPGSV,2,1,8,2,62,315,32,5,41,231,43,6,62,52,50,9,36,73,46*4F
$GPGSV,2,2,8,12,32,267,44,17,27,143,42,23,12,40,,25,18,307,*7F
$BDGSV,2,1,8,161,36,146,40,162,31,229,37,163,43,188,42,164,25,124,32*5B
$BDGSV,2,2,8,165,16,248,36,166,67,201,46,168,67,128,47,169,38,211,42*58
$GNGGA,073416.000,4004.717978,N,11614.146814,E,1,14,1.142,33.313,M,0,M,,*53
$GNGLL,4004.717978,N,11614.146814,E,073416.000,A,A*4A
$GNGSA,A,3,5,6,9,17,2,12,,,,,,,1.946,1.142,1.576*28
$GNGSA,A,3,161,162,163,164,165,166,168,169,,,,,1.946,1.142,1.576*23
$GPGSV,2,1,8,2,62,315,32,5,41,231,43,6,62,52,51,9,36,73,46*4E
$GPGSV,2,2,8,12,32,267,45,17,27,143,42,23,12,40,,25,18,307,*7E
$BDGSV,2,1,8,161,36,146,40,162,31,229,37,163,43,188,43,164,25,124,32*5A
$BDGSV,2,2,8,165,16,248,37,166,67,201,46,168,67,128,47,169,38,211,42*59
$GNGGA,073417.000,4004.717975,N,11614.146816,E,1,14,1.142,33.316,M,0,M,,*58
$GNGLL,4004.717975,N,11614.146816,E,073417.000,A,A*44
$GNGSA,A,3,5,6,9,17,2,12,,,,,,,1.946,1.142,1.576*28
$GNGSA,A,3,161,162,163,164,165,166,168,169,,,,,1.946,1.142,1.576*23
$GPGSV,2,1,8,2,62,315,32,5,41,231,43,6,62,52,51,9,36,73,46*4E
$GPGSV,2,2,8,12,32,267,45,17,27,143,42,23,12,40,,25,18,307,*7E
$BDGSV,2,1,8,161,36,146,41,162,31,229,36,163,43,188,43,164,25,124,38*50
$BDGSV,2,2,8,165,16,248,36,166,67,201,46,168,67,128,47,169,38,211,42*58
$GNGGA,073418.000,4004.717971,N,11614.146819,E,1,14,1.142,33.322,M,0,M,,*5B
$GNGLL,4004.717971,N,11614.146819,E,073418.000,A,A*40
$GNGSA,A,3,5,6,9,17,2,12,,,,,,,1.946,1.142,1.576*28
$GNGSA,A,3,161,162,163,164,165,166,168,169,,,,,1.946,1.142,1.576*23
$GPGSV,2,1,8,2,62,315,33,5,41,231,43,6,62,52,51,9,36,73,46*4F
$GPGSV,2,2,8,12,32,267,45,17,27,143,42,23,12,40,,25,18,307,*7E
$BDGSV,2,1,8,161,36,146,41,162,31,229,37,163,43,188,43,164,25,124,38*51
$BDGSV,2,2,8,165,16,248,36,166,67,201,46,168,67,128,47,169,38,211,42*58
$GNGGA,073419.000,4004.717968,N,11614.146822,E,1,14,1.142,33.323,M,0,M,,*5B
$GNGLL,4004.717968,N,11614.146822,E,073419.000,A,A*41
$GNGSA,A,3,5,6,9,17,2,12,,,,,,,1.946,1.142,1.576*28
$GNGSA,A,3,161,162,163,164,165,166,168,169,,,,,1.946,1.142,1.576*23
$GPGSV,2,1,8,2,62,315,33,5,41,231,44,6,62,52,50,9,36,73,46*49
$GPGSV,2,2,8,12,32,267,45,17,27,143,42,23,12,40,,25,18,307,*7E
$BDGSV,2,1,8,161,36,146,41,162,31,229,36,163,43,188,43,164,25,124,38*50
$BDGSV,2,2,8,165,16,248,37,166,67,201,46,168,67,128,47,169,38,211,42*59
$GNGGA,073420.000,4004.717964,N,11614.146824,E,1,14,1.142,33.319,M,0,M,,*52
$GNGLL,4004.717964,N,11614.146824,E,073420.000,A,A*41
$GNGSA,A,3,5,6,9,17,2,12,,,,,,,1.946,1.142,1.576*28
$GNGSA,A,3,161,162,163,164,165,166,168,169,,,,,1.946,1.142,1.576*23
$GPGSV,2,1,8,2,62,315,33,5,41,231,44,6,62,52,50,9,36,73,46*49
$GPGSV,2,2,8,12,32,267,45,17,27,143,42,23,12,40,,25,18,307,*7E
$BDGSV,2,1,8,161,36,146,41,162,31,229,36,163,43,188,43,164,25,124,38*50
$BDGSV,2,2,8,165,16,248,37,166,67,201,46,168,67,128,47,169,38,211,42*59
$GNGGA,073421.000,4004.717961,N,11614.146826,E,1,14,1.142,33.317,M,0,M,,*5A
$GNGLL,4004.717961,N,11614.146826,E,073421.000,A,A*47
$GNGSA,A,3,5,6,9,17,2,12,,,,,,,1.946,1.142,1.575*2B
$GNGSA,A,3,161,162,163,164,165,166,168,169,,,,,1.946,1.142,1.575*20
$GPGSV,2,1,8,2,62,315,32,5,41,231,44,6,62,52,49,9,36,73,45*43
$GPGSV,2,2,8,12,32,267,44,17,27,143,42,23,12,40,,25,18,307,*7F
$BDGSV,2,1,8,161,36,146,41,162,31,229,36,163,43,188,43,164,25,124,32*5A
$BDGSV,2,2,8,165,16,248,37,166,67,201,46,168,67,128,47,169,38,211,42*59
$GNGGA,073422.000,4004.717957,N,11614.146829,E,1,14,1.142,33.315,M,0,M,,*51
$GNGLL,4004.717957,N,11614.146829,E,073422.000,A,A*4E
$GNGSA,A,3,5,6,9,17,2,12,,,,,,,1.946,1.142,1.575*2B
$GNGSA,A,3,161,162,163,164,165,166,168,169,,,,,1.946,1.142,1.575*20
$GPGSV,2,1,8,2,62,315,32,5,41,231,45,6,62,52,50,9,36,73,45*4A
$GPGSV,2,2,8,12,32,267,45,17,27,143,42,23,11,40,,25,18,307,*7D
$BDGSV,2,1,8,161,36,146,41,162,31,229,36,163,43,188,43,164,25,124,32*5A
$BDGSV,2,2,8,165,16,248,37,166,67,201,46,168,67,128,47,169,38,211,42*59
$GNGGA,073423.000,4004.717955,N,11614.146831,E,1,14,1.142,33.314,M,0,M,,*5A
$GNGLL,4004.717955,N,11614.146831,E,073423.000,A,A*44
$GNGSA,A,3,5,6,9,17,2,12,,,,,,,1.946,1.142,1.575*2B
$GNGSA,A,3,161,162,163,164,165,166,168,169,,,,,1.946,1.142,1.575*20
$GPGSV,2,1,8,2,62,315,32,5,41,231,44,6,62,52,48,9,36,73,43*44
$GPGSV,2,2,8,12,32,267,43,17,27,143,41,23,11,40,,25,18,307,*78
$BDGSV,2,1,8,161,36,146,41,162,31,229,37,163,43,188,43,164,25,124,39*50
$BDGSV,2,2,8,165,16,248,36,166,67,201,44,168,67,128,45,169,38,211,42*58
$GNGGA,073424.000,4004.717955,N,11614.146832,E,1,14,1.142,33.310,M,0,M,,*5A
$GNGLL,4004.717955,N,11614.146832,E,073424.000,A,A*40
$GNGSA,A,3,5,6,9,17,2,12,,,,,,,1.946,1.142,1.575*2B
$GNGSA,A,3,161,162,163,164,165,166,168,169,,,,,1.946,1.142,1.575*20
$GPGSV,2,1,8,2,62,315,32,5,41,231,45,6,62,52,49,9,36,73,44*43
$GPGSV,2,2,8,12,32,267,44,17,27,143,42,23,11,40,,25,18,307,*7C
$BDGSV,2,1,8,161,36,146,41,162,31,229,37,163,43,188,43,164,25,124,38*51
$BDGSV,2,2,8,165,16,248,36,166,67,201,45,168,67,128,46,169,38,211,42*5A
$GNGGA,073425.000,4004.717956,N,11614.146832,E,1,14,1.142,33.305,M,0,M,,*5C
$GNGLL,4004.717956,N,11614.146832,E,073425.000,A,A*42
$GNGSA,A,3,5,6,9,17,2,12,,,,,,,1.946,1.142,1.575*2B
$GNGSA,A,3,161,162,163,164,165,166,168,169,,,,,1.946,1.142,1.575*20
$GPGSV,2,1,8,2,62,315,32,5,41,231,45,6,62,52,50,9,36,73,45*4A
$GPGSV,2,2,8,12,32,267,44,17,27,143,42,23,11,39,,25,18,307,*72
$BDGSV,2,1,8,161,36,146,42,162,31,229,37,163,43,188,43,164,25,124,38*52
$BDGSV,2,2,8,165,16,248,36,166,67,201,45,168,67,128,46,169,38,211,42*5A
$GNGGA,073426.000,4004.717956,N,11614.146832,E,1,14,1.142,33.299,M,0,M,,*5B
$GNGLL,4004.717956,N,11614.146832,E,073426.000,A,A*41
$GNGSA,A,3,5,6,9,17,2,12,,,,,,,1.945,1.142,1.575*28
$GNGSA,A,3,161,162,163,164,165,166,168,169,,,,,1.945,1.142,1.575*23
$GPGSV,2,1,8,2,62,315,32,5,41,231,45,6,62,52,50,9,36,73,45*4A
$GPGSV,2,2,8,12,32,267,45,17,27,143,43,23,11,39,,25,18,307,*72
$BDGSV,2,1,8,161,36,146,41,162,31,229,37,163,43,188,43,164,25,124,38*51
$BDGSV,2,2,8,165,16,248,36,166,67,201,45,168,67,128,47,169,38,211,42*5B
$GNGGA,073427.000,4004.717957,N,11614.146831,E,1,14,1.142,33.295,M,0,M,,*54
$GNGLL,4004.717957,N,11614.146831,E,073427.000,A,A*42
$GNGSA,A,3,5,6,9,17,2,12,,,,,,,1.945,1.142,1.575*28
$GNGSA,A,3,161,162,163,164,165,166,168,169,,,,,1.945,1.142,1.575*23
$GPGSV,2,1,8,2,62,316,32,5,41,231,46,6,62,53,50,9,36,73,45*4B
$GPGSV,2,2,8,12,32,267,45,17,27,143,43,23,11,39,,25,18,307,*72
$BDGSV,2,1,8,161,36,146,41,162,31,229,37,163,43,188,43,164,25,124,33*5A
$BDGSV,2,2,8,165,16,248,36,166,67,201,46,168,67,128,47,169,38,211,42*58
$GNGGA,073428.000,4004.717958,N,11614.146830,E,1,14,1.142,33.294,M,0,M,,*54
$GNGLL,4004.717958,N,11614.146830,E,073428.000,A,A*43
$GNGSA,A,3,5,6,9,17,2,12,,,,,,,1.945,1.142,1.575*28
$GNGSA,A,3,161,162,163,164,165,166,168,169,,,,,1.945,1.142,1.575*23
$GPGSV,2,1,8,2,62,316,32,5,41,231,46,6,62,53,50,9,36,73,45*4B
$GPGSV,2,2,8,12,32,267,45,17,27,143,43,23,11,39,,25,18,307,*72
$BDGSV,2,1,8,161,36,146,42,162,31,229,37,163,43,188,43,164,25,124,33*59
$BDGSV,2,2,8,165,16,248,36,166,67,201,45,168,67,128,47,169,38,211,42*5B
$GNGGA,073429.000,4004.717961,N,11614.146828,E,1,14,1.142,33.290,M,0,M,,*52
$GNGLL,4004.717961,N,11614.146828,E,073429.000,A,A*41
$GNGSA,A,3,5,6,9,17,2,12,,,,,,,1.945,1.142,1.575*28
$GNGSA,A,3,161,162,163,164,165,166,168,169,,,,,1.945,1.142,1.575*23
$GPGSV,2,1,8,2,62,316,32,5,41,231,46,6,62,53,51,9,36,73,45*4A
$GPGSV,2,2,8,12,32,267,45,17,27,143,43,23,11,39,,25,18,307,*72
$BDGSV,2,1,8,161,36,146,41,162,31,229,37,163,43,188,43,164,25,124,33*5A
$BDGSV,2,2,8,165,16,248,36,166,67,201,45,168,67,128,47,169,38,211,42*5B
$GNGGA,073430.000,4004.717965,N,11614.146826,E,1,14,1.142,33.282,M,0,M,,*53
$GNGLL,4004.717965,N,11614.146826,E,073430.000,A,A*43
$GNGSA,A,3,5,6,9,17,2,12,,,,,,,1.945,1.142,1.574*29
$GNGSA,A,3,161,162,163,164,165,166,168,169,,,,,1.945,1.142,1.574*22
$GPGSV,2,1,8,2,62,316,32,5,41,231,46,6,62,53,50,9,36,73,45*4B
$GPGSV,2,2,8,12,32,267,45,17,27,143,43,23,11,39,,25,18,307,*72
$BDGSV,2,1,8,161,36,146,41,162,31,229,37,163,43,188,43,164,25,124,39*50
$BDGSV,2,2,8,165,16,248,36,166,67,201,45,168,67,128,47,169,38,211,42*5B
$GNGGA,073431.000,4004.717964,N,11614.146825,E,1,14,1.142,33.280,M,0,M,,*52
$GNGLL,4004.717964,N,11614.146825,E,073431.000,A,A*40
$GNGSA,A,3,5,6,9,17,2,12,,,,,,,1.945,1.142,1.574*29
$GNGSA,A,3,161,162,163,164,165,166,168,169,,,,,1.945,1.142,1.574*22
$GPGSV,2,1,8,2,62,316,32,5,41,231,37,6,62,53,50,9,36,73,45*4D
$GPGSV,2,2,8,12,32,267,44,17,27,143,37,23,11,39,,25,18,307,*70
$BDGSV,2,1,8,161,36,146,41,162,31,229,37,163,43,188,43,164,25,124,38*51
$BDGSV,2,2,8,165,16,248,36,166,67,201,45,168,67,128,47,169,38,211,42*5B
$GNGGA,073432.000,4004.717971,N,11614.146824,E,1,14,1.142,33.275,M,0,M,,*5E
$GNGLL,4004.717971,N,11614.146824,E,073432.000,A,A*46
$GNGSA,A,3,5,6,9,17,2,12,,,,,,,1.945,1.142,1.574*29
$GNGSA,A,3,161,162,163,164,165,166,168,169,,,,,1.945,1.142,1.574*22
$GPGSV,2,1,8,2,62,316,31,5,41,231,45,6,62,53,47,9,36,73,45*4D
$GPGSV,2,2,8,12,32,267,44,17,27,143,43,23,11,39,,25,18,307,*73
$BDGSV,2,1,8,161,36,146,41,162,31,229,37,163,43,188,43,164,25,124,39*50
$BDGSV,2,2,8,165,16,248,36,166,67,201,44,168,67,128,46,169,38,211,41*58
$GNGGA,073433.000,4004.717974,N,11614.146823,E,1,14,1.142,33.271,M,0,M,,*59
$GNGLL,4004.717974,N,11614.146823,E,073433.000,A,A*45
$GNGSA,A,3,5,6,9,17,2,12,,,,,,,1.945,1.142,1.574*29
$GNGSA,A,3,161,162,163,164,165,166,168,169,,,,,1.945,1.142,1.574*22
$GPGSV,2,1,8,2,62,316,31,5,41,231,45,6,62,53,48,9,36,73,45*42
$GPGSV,2,2,8,12,32,267,44,17,27,143,43,23,11,39,,25,18,307,*73
$BDGSV,2,1,8,161,36,146,41,162,31,229,37,163,43,188,43,164,25,124,39*50
$BDGSV,2,2,8,165,16,248,37,166,67,201,45,168,67,128,46,169,38,211,42*5B
$GNGGA,073434.000,4004.717977,N,11614.146820,E,1,14,1.142,33.263,M,0,M,,*5D
$GNGLL,4004.717977,N,11614.146820,E,073434.000,A,A*42
$GNGSA,A,3,5,6,9,17,2,12,,,,,,,1.945,1.142,1.574*29
$GNGSA,A,3,161,162,163,164,165,166,168,169,,,,,1.945,1.142,1.574*22
$GPGSV,2,1,8,2,62,316,31,5,41,231,45,6,62,53,49,9,36,73,46*40
$GPGSV,2,2,8,12,32,267,43,17,27,143,43,23,11,39,,25,18,307,*74
$BDGSV,2,1,8,161,36,146,41,162,31,229,38,163,43,188,44,164,25,124,39*58
$BDGSV,2,2,8,165,16,248,37,166,67,201,45,168,67,128,47,169,38,211,42*5A
$GNGGA,073435.000,4004.717981,N,11614.146819,E,1,14,1.142,33.255,M,0,M,,*5A
$GNGLL,4004.717981,N,11614.146819,E,073435.000,A,A*40
$GNGSA,A,3,5,6,9,17,2,12,,,,,,,1.945,1.142,1.574*29
$GNGSA,A,3,161,162,163,164,165,166,168,169,,,,,1.945,1.142,1.574*22
$GPGSV,2,1,8,2,62,316,31,5,41,231,46,6,62,53,49,9,36,73,46*43
$GPGSV,2,2,8,12,32,267,43,17,27,143,43,23,11,39,,25,18,307,*74
$BDGSV,2,1,8,161,36,146,41,162,31,229,38,163,43,188,44,164,25,124,39*58
$BDGSV,2,2,8,165,16,248,37,166,67,201,45,168,67,128,47,169,38,211,42*5A
$GNGGA,073436.000,4004.717983,N,11614.146818,E,1,14,1.142,33.248,M,0,M,,*56
$GNGLL,4004.717983,N,11614.146818,E,073436.000,A,A*40
$GNGSA,A,3,5,6,9,17,2,12,,,,,,,1.945,1.142,1.574*29
$GNGSA,A,3,161,162,163,164,165,166,168,169,,,,,1.945,1.142,1.574*22
$GPGSV,2,1,8,2,62,316,32,5,41,231,46,6,62,53,49,9,36,73,46*40
$GPGSV,2,2,8,12,31,267,43,17,27,143,43,23,11,39,,25,18,307,*77
$BDGSV,2,1,8,161,36,146,41,162,31,229,38,163,43,188,44,164,25,124,39*58
$BDGSV,2,2,8,165,16,248,37,166,67,201,45,168,67,128,47,169,38,211,42*5A
$GNGGA,073437.000,4004.717986,N,11614.146816,E,1,14,1.142,33.243,M,0,M,,*57
$GNGLL,4004.717986,N,11614.146816,E,073437.000,A,A*4A
$GNGSA,A,3,5,6,9,17,2,12,,,,,,,1.944,1.142,1.574*28
$GNGSA,A,3,161,162,163,164,165,166,168,169,,,,,1.944,1.142,1.574*23
$GPGSV,2,1,8,2,62,316,32,5,41,231,46,6,62,53,50,9,36,73,46*48
$GPGSV,2,2,8,12,31,267,44,17,27,143,44,23,11,39,,25,18,307,*77
$BDGSV,2,1,8,161,36,146,41,162,31,229,38,163,43,188,44,164,25,124,39*58
$BDGSV,2,2,8,165,16,248,37,166,67,201,45,168,67,128,47,169,38,211,42*5A
$GNGGA,073438.000,4004.717988,N,11614.146815,E,1,14,1.142,33.240,M,0,M,,*56
$GNGLL,4004.717988,N,11614.146815,E,073438.000,A,A*48
$GNGSA,A,3,5,6,9,17,2,12,,,,,,,1.944,1.142,1.574*28
$GNGSA,A,3,161,162,163,164,165,166,168,169,,,,,1.944,1.142,1.574*23
$GPGSV,2,1,8,2,62,316,33,5,41,231,46,6,62,53,49,9,36,73,46*41
$GPGSV,2,2,8,12,31,267,44,17,27,143,44,23,11,39,,25,18,307,*77
$BDGSV,2,1,8,161,36,146,42,162,31,229,37,163,43,188,44,164,25,124,38*55
$BDGSV,2,2,8,165,16,248,37,166,67,201,45,168,67,128,47,169,38,211,42*5A
$GNGGA,073439.000,4004.717990,N,11614.146814,E,1,14,1.142,33.237,M,0,M,,*5F
$GNGLL,4004.717990,N,11614.146814,E,073439.000,A,A*41
$GNGSA,A,3,5,6,9,17,2,12,,,,,,,1.944,1.142,1.573*2F
$GNGSA,A,3,161,162,163,164,165,166,168,169,,,,,1.944,1.142,1.573*24
$GPGSV,2,1,8,2,62,316,33,5,41,231,46,6,62,53,50,9,36,73,46*49
$GPGSV,2,2,8,12,31,267,44,17,27,143,44,23,11,39,,25,18,307,*77
$BDGSV,2,1,8,161,36,146,42,162,31,229,38,163,43,188,44,164,25,124,39*5B
$BDGSV,2,2,8,165,16,248,37,166,67,201,45,168,67,128,47,169,38,211,42*5A
$GNGGA,073440.000,4004.717992,N,11614.146812,E,1,14,1.142,33.238,M,0,M,,*5A
$GNGLL,4004.717992,N,11614.146812,E,073440.000,A,A*4B
$GNGSA,A,3,5,6,9,17,2,12,,,,,,,1.944,1.142,1.573*2F
$GNGSA,A,3,161,162,163,164,165,166,168,169,,,,,1.944,1.142,1.573*24
$GPGSV,2,1,8,2,62,316,34,5,41,231,46,6,62,53,50,9,36,73,46*4E
$GPGSV,2,2,8,12,31,267,44,17,27,143,44,23,11,39,,25,18,307,*77
$BDGSV,2,1,8,161,36,146,42,162,31,229,38,163,43,188,44,164,25,124,39*5B
$BDGSV,2,2,8,165,16,248,37,166,67,201,45,168,67,128,47,169,38,211,42*5A
$GNGGA,073441.000,4004.717993,N,11614.146812,E,1,14,1.142,33.238,M,0,M,,*5A
$GNGLL,4004.717993,N,11614.146812,E,073441.000,A,A*4B
$GNGSA,A,3,5,6,9,17,2,12,,,,,,,1.944,1.142,1.573*2F
$GNGSA,A,3,161,162,163,164,165,166,168,169,,,,,1.944,1.142,1.573*24
$GPGSV,2,1,8,2,62,316,34,5,41,231,46,6,62,53,49,9,36,73,45*45
$GPGSV,2,2,8,12,31,267,43,17,27,143,43,23,11,39,,25,18,307,*77
$BDGSV,2,1,8,161,36,146,41,162,31,229,38,163,43,188,44,164,25,124,39*58
$BDGSV,2,2,8,165,16,248,37,166,67,201,45,168,67,128,47,169,38,211,42*5A
$GNGGA,073442.000,4004.717997,N,11614.146810,E,1,14,1.142,33.235,M,0,M,,*52
$GNGLL,4004.717997,N,11614.146810,E,073442.000,A,A*4E
$GNGSA,A,3,5,6,9,17,2,12,,,,,,,1.944,1.142,1.573*2F
$GNGSA,A,3,161,162,163,164,165,166,168,169,,,,,1.944,1.142,1.573*24
$GPGSV,2,1,8,2,62,316,34,5,41,231,46,6,62,53,49,9,36,73,45*45
$GPGSV,2,2,8,12,31,267,44,17,27,143,44,23,11,39,,25,18,306,27*73
$BDGSV,2,1,8,161,36,146,41,162,31,229,38,163,43,188,43,164,25,124,33*55
$BDGSV,2,2,8,165,16,248,37,166,67,201,45,168,67,128,47,169,38,211,42*5A
$GNGGA,073443.000,4004.718001,N,11614.146807,E,1,14,1.142,33.226,M,0,M,,*5E
$GNGLL,4004.718001,N,11614.146807,E,073443.000,A,A*40
$GNGSA,A,3,5,6,9,17,2,12,,,,,,,1.944,1.142,1.573*2F
$GNGSA,A,3,161,162,163,164,165,166,168,169,,,,,1.944,1.142,1.573*24
$GPGSV,2,1,8,2,62,316,34,5,41,231,46,6,62,53,50,9,36,73,45*4D
$GPGSV,2,2,8,12,31,267,45,17,27,143,44,23,11,39,,25,18,306,17*71
$BDGSV,2,1,8,161,36,146,41,162,31,229,37,163,43,188,43,164,25,124,37*5E
$BDGSV,2,2,8,165,16,248,36,166,67,201,45,168,67,128,47,169,38,211,42*5B
$GNGGA,073444.000,4004.718005,N,11614.146801,E,1,14,1.142,33.216,M,0,M,,*58
$GNGLL,4004.718005,N,11614.146801,E,073444.000,A,A*45
$GNGSA,A,3,5,6,9,17,2,12,,,,,,,1.944,1.142,1.573*2F
$GNGSA,A,3,161,162,163,164,165,166,168,169,,,,,1.944,1.142,1.573*24
$GPGSV,2,1,8,2,62,316,34,5,41,231,46,6,62,53,50,9,36,73,45*4D
$GPGSV,2,2,8,12,31,267,45,17,27,143,44,23,11,39,,25,18,306,18*7E
$BDGSV,2,1,8,161,36,146,42,162,31,229,37,163,43,188,43,164,25,124,37*5D
$BDGSV,2,2,8,165,16,248,36,166,67,201,45,168,67,128,47,169,38,211,42*5B
$GNGGA,073445.000,4004.718008,N,11614.146796,E,1,14,1.142,33.203,M,0,M,,*51
$GNGLL,4004.718008,N,11614.146796,E,073445.000,A,A*48
$GNGSA,A,3,5,6,9,17,2,12,,,,,,,1.944,1.142,1.573*2F
$GNGSA,A,3,161,162,163,164,165,166,168,169,,,,,1.944,1.142,1.573*24
$GPGSV,2,1,8,2,62,316,34,5,41,231,46,6,62,53,50,9,36,73,45*4D
$GPGSV,2,2,8,12,31,267,44,17,27,143,44,23,11,39,,25,18,306,17*70
$BDGSV,2,1,8,161,36,146,42,162,31,229,41,163,43,188,43,164,25,124,39*52
$BDGSV,2,2,8,165,16,248,37,166,67,201,45,168,67,128,47,169,38,211,42*5A
$GNGGA,073446.000,4004.718012,N,11614.146791,E,1,14,1.142,33.193,M,0,M,,*54
$GNGLL,4004.718012,N,11614.146791,E,073446.000,A,A*47
$GNGSA,A,3,5,6,9,17,2,12,,,,,,,1.944,1.142,1.573*2F
$GNGSA,A,3,161,162,163,164,165,166,168,169,,,,,1.944,1.142,1.573*24
$GPGSV,2,1,8,2,62,316,34,5,41,231,47,6,62,53,50,9,36,73,46*4F
$GPGSV,2,2,8,12,31,267,44,17,27,143,44,23,11,39,,25,18,306,19*7E
$BDGSV,2,1,8,161,36,146,42,162,31,229,38,163,43,188,43,164,25,124,38*5D
$BDGSV,2,2,8,165,16,248,37,166,67,201,45,168,67,128,47,169,38,211,41*59
$GNGGA,073447.000,4004.718015,N,11614.146785,E,1,14,1.142,33.183,M,0,M,,*56
$GNGLL,4004.718015,N,11614.146785,E,073447.000,A,A*44
$GNGSA,A,3,5,6,9,17,2,12,,,,,,,1.944,1.142,1.573*2F
$GNGSA,A,3,161,162,163,164,165,166,168,169,,,,,1.944,1.142,1.573*24
$GPGSV,2,1,8,2,62,316,34,5,41,231,47,6,62,53,50,9,36,73,45*4C
$GPGSV,2,2,8,12,31,267,44,17,27,143,44,23,11,39,,25,18,306,16*71
$BDGSV,2,1,8,161,36,146,42,162,31,229,37,163,43,188,43,164,25,124,33*59
$BDGSV,2,2,8,165,16,248,37,166,67,201,45,168,67,128,47,169,38,211,41*59
$GNGGA,073448.000,4004.718018,N,11614.146780,E,1,14,1.142,33.171,M,0,M,,*5C
$GNGLL,4004.718018,N,11614.146780,E,073448.000,A,A*43
$GNGSA,A,3,5,6,9,17,2,12,,,,,,,1.943,1.142,1.572*29
$GNGSA,A,3,161,162,163,164,165,166,168,169,,,,,1.943,1.142,1.572*22
$GPGSV,2,1,8,2,62,316,34,5,41,231,47,6,62,53,50,9,36,73,45*4C
$GPGSV,2,2,8,12,31,267,44,17,27,143,45,23,11,39,,25,18,306,*77
$BDGSV,2,1,8,161,36,146,42,162,31,229,36,163,43,188,43,164,25,124,33*58
$BDGSV,2,2,8,165,16,248,37,166,67,201,45,168,67,128,46,169,38,211,41*58
$GNGGA,073449.000,4004.718020,N,11614.146774,E,1,14,1.142,33.159,M,0,M,,*57
$GNGLL,4004.718020,N,11614.146774,E,073449.000,A,A*42
$GNGSA,A,3,5,6,9,17,2,12,,,,,,,1.943,1.142,1.572*29
$GNGSA,A,3,161,162,163,164,165,166,168,169,,,,,1.943,1.142,1.572*22
$GPGSV,2,1,8,2,62,316,34,5,41,231,47,6,62,53,50,9,36,73,45*4C
$GPGSV,2,2,8,12,31,267,44,17,27,143,45,23,11,39,,25,18,306,*77
$BDGSV,2,1,8,161,36,146,41,162,31,229,37,163,43,188,43,164,25,124,39*50
$BDGSV,2,2,8,165,16,248,37,166,67,201,45,168,67,128,46,169,38,211,41*58
$GNGGA,073450.000,4004.718021,N,11614.146769,E,1,14,1.142,33.150,M,0,M,,*5B
$GNGLL,4004.718021,N,11614.146769,E,073450.000,A,A*47
$GNGSA,A,3,5,6,9,17,2,12,,,,,,,1.943,1.142,1.572*29
$GNGSA,A,3,161,162,163,164,165,166,168,169,,,,,1.943,1.142,1.572*22
$GPGSV,2,1,8,2,62,316,34,5,41,231,47,6,62,53,50,9,36,73,45*4C
$GPGSV,2,2,8,12,31,267,45,17,27,143,45,23,11,39,,25,18,306,*76
$BDGSV,2,1,8,161,36,146,41,162,31,229,37,163,43,188,44,164,25,124,38*56
$BDGSV,2,2,8,165,16,248,37,166,67,201,45,168,67,128,46,169,38,212,41*5B
$GNGGA,073451.000,4004.718023,N,11614.146764,E,1,14,1.142,33.143,M,0,M,,*57
$GNGLL,4004.718023,N,11614.146764,E,073451.000,A,A*49
$GNGSA,A,3,5,6,9,17,2,12,,,,,,,1.943,1.142,1.572*29
$GNGSA,A,3,161,162,163,164,165,166,168,169,,,,,1.943,1.142,1.572*22
$GPGSV,2,1,8,2,62,316,34,5,41,231,47,6,62,53,50,9,36,72,45*4D
$GPGSV,2,2,8,12,31,267,45,17,27,143,45,23,11,39,,25,18,306,*76
$BDGSV,2,1,8,161,36,146,41,162,31,229,37,163,43,188,44,164,25,124,38*56
$BDGSV,2,2,8,165,16,248,37,166,67,201,44,168,67,128,47,169,38,212,41*5B
$GNGGA,073452.000,4004.718023,N,11614.146758,E,1,14,1.142,33.139,M,0,M,,*56
$GNGLL,4004.718023,N,11614.146758,E,073452.000,A,A*45
$GNGSA,A,3,5,6,9,17,2,12,,,,,,,1.943,1.142,1.572*29
$GNGSA,A,3,161,162,163,164,165,166,168,169,,,,,1.943,1.142,1.572*22
$GPGSV,2,1,8,2,62,316,34,5,41,231,47,6,62,53,50,9,36,72,45*4D
$GPGSV,2,2,8,12,31,267,45,17,27,143,45,23,11,39,,25,18,306,*76
$BDGSV,2,1,8,161,36,146,41,162,31,229,37,163,43,188,43,164,25,124,38*51
$BDGSV,2,2,8,165,16,248,37,166,67,201,44,168,67,128,47,169,38,212,41*5B
$GNGGA,073453.000,4004.718023,N,11614.146752,E,1,14,1.142,33.135,M,0,M,,*51
$GNGLL,4004.718023,N,11614.146752,E,073453.000,A,A*4E
$GNGSA,A,3,5,6,9,17,2,12,,,,,,,1.943,1.142,1.572*29
$GNGSA,A,3,161,162,163,164,165,166,168,169,,,,,1.943,1.142,1.572*22
$GPGSV,2,1,8,2,62,316,33,5,41,231,47,6,62,53,50,9,36,72,45*4A
$GPGSV,2,2,8,12,31,267,45,17,27,143,45,23,11,39,,25,18,306,*76
$BDGSV,2,1,8,161,36,146,41,162,31,229,37,163,43,188,43,164,25,124,32*5B
$BDGSV,2,2,8,165,16,248,37,166,67,201,44,168,67,128,46,169,38,212,41*5A
$GNGGA,073454.000,4004.718023,N,11614.146748,E,1,14,1.142,33.133,M,0,M,,*5B
$GNGLL,4004.718023,N,11614.146748,E,073454.000,A,A*42
$GNGSA,A,3,5,6,9,17,2,12,,,,,,,1.943,1.142,1.572*29
$GNGSA,A,3,161,162,163,164,165,166,168,169,,,,,1.943,1.142,1.572*22
$GPGSV,2,1,8,2,62,316,33,5,41,231,47,6,62,53,50,9,36,72,45*4A
$GPGSV,2,2,8,12,31,267,45,17,27,143,45,23,11,39,,25,18,306,*76
$BDGSV,2,1,8,161,36,146,41,162,31,229,38,163,43,188,43,164,25,124,38*5E
$BDGSV,2,2,8,165,16,248,37,166,67,201,44,168,67,128,46,169,38,212,41*5A
$GNGGA,073455.000,4004.718023,N,11614.146743,E,1,14,1.142,33.131,M,0,M,,*53
$GNGLL,4004.718023,N,11614.146743,E,073455.000,A,A*48
$GNGSA,A,3,5,6,9,17,2,12,,,,,,,1.943,1.142,1.572*29
$GNGSA,A,3,161,162,163,164,165,166,168,169,,,,,1.943,1.142,1.572*22
$GPGSV,2,1,8,2,62,316,33,5,41,231,47,6,62,53,50,9,36,72,45*4A
$GPGSV,2,2,8,12,31,267,45,17,27,143,45,23,11,39,,25,18,306,*76
$BDGSV,2,1,8,161,36,146,41,162,31,229,37,163,43,188,43,164,25,124,38*51
$BDGSV,2,2,8,165,16,248,37,166,67,201,44,168,67,128,46,169,38,212,40*5B
$GNGGA,073456.000,4004.718021,N,11614.146739,E,1,14,1.142,33.135,M,0,M,,*5B
$GNGLL,4004.718021,N,11614.146739,E,073456.000,A,A*44
$GNGSA,A,3,5,6,9,17,2,12,,,,,,,1.943,1.142,1.572*29
$GNGSA,A,3,161,162,163,164,165,166,168,169,,,,,1.943,1.142,1.572*22
$GPGSV,2,1,8,2,62,316,33,5,41,231,47,6,62,53,50,9,36,72,45*4A
$GPGSV,2,2,8,12,31,267,45,17,27,143,45,23,11,39,,25,18,306,*76
$BDGSV,2,1,8,161,36,146,41,162,31,229,37,163,43,188,43,164,25,124,38*51
$BDGSV,2,2,8,165,16,248,37,166,67,201,44,168,67,128,47,169,38,212,40*5A
$GNGGA,073457.000,4004.718017,N,11614.146736,E,1,14,1.142,33.145,M,0,M,,*57
$GNGLL,4004.718017,N,11614.146736,E,073457.000,A,A*4F
$GNGSA,A,3,5,6,9,17,2,12,,,,,,,1.943,1.142,1.572*29
$GNGSA,A,3,161,162,163,164,165,166,168,169,,,,,1.943,1.142,1.572*22
$GPGSV,2,1,8,2,62,316,33,5,41,231,47,6,62,53,50,9,36,72,45*4A
$GPGSV,2,2,8,12,31,267,46,17,27,143,45,23,11,39,,25,18,306,*75
$BDGSV,2,1,8,161,36,146,41,162,31,229,37,163,43,188,43,164,25,124,32*5B
$BDGSV,2,2,8,165,16,248,37,166,67,201,44,168,67,128,47,169,38,212,40*5A
$GNGGA,073458.000,4004.718013,N,11614.146733,E,1,14,1.142,33.159,M,0,M,,*54
$GNGLL,4004.718013,N,11614.146733,E,073458.000,A,A*41
$GNGSA,A,3,5,6,9,17,2,12,,,,,,,1.943,1.142,1.571*2A
$GNGSA,A,3,161,162,163,164,165,166,168,169,,,,,1.943,1.142,1.571*21
$GPGSV,2,1,8,2,62,316,34,5,41,231,47,6,62,53,50,9,36,72,45*4D
$GPGSV,2,2,8,12,31,267,45,17,27,143,45,23,11,39,,25,18,306,*76
$BDGSV,2,1,8,161,36,146,42,162,31,229,37,163,43,188,43,164,25,124,32*58
$BDGSV,2,2,8,165,16,248,37,166,67,201,44,168,67,128,46,169,38,212,40*5B
$GNGGA,073459.000,4004.718007,N,11614.146730,E,1,14,1.142,33.172,M,0,M,,*5A
$GNGLL,4004.718007,N,11614.146730,E,073459.000,A,A*46
$GNGSA,A,3,5,6,9,17,2,12,,,,,,,1.943,1.142,1.571*2A
$GNGSA,A,3,161,162,163,164,165,166,168,169,,,,,1.943,1.142,1.571*21
$GPGSV,2,1,8,2,62,316,33,5,41,231,47,6,62,53,50,9,36,72,45*4A
$GPGSV,2,2,8,12,31,267,46,17,27,143,45,23,11,39,,25,18,306,*75
$BDGSV,2,1,8,161,36,146,41,162,31,229,37,163,43,188,43,164,25,124,37*5E
$BDGSV,2,2,8,165,16,248,37,166,67,201,44,168,67,128,46,169,38,212,40*5B
$GNGGA,073500.000,4004.718001,N,11614.146730,E,1,14,1.142,33.185,M,0,M,,*59
$GNGLL,4004.718001,N,11614.146730,E,073500.000,A,A*4D
$GNGSA,A,3,5,6,9,17,2,12,,,,,,,1.942,1.142,1.571*2B
$GNGSA,A,3,161,162,163,164,165,166,168,169,,,,,1.942,1.142,1.571*20
$GPGSV,2,1,8,2,62,316,33,5,41,231,47,6,62,53,50,9,36,72,45*4A
$GPGSV,2,2,8,12,31,267,46,17,27,143,45,23,11,39,,25,18,306,*75
$BDGSV,2,1,8,161,36,146,41,162,31,229,37,163,43,188,43,164,25,124,38*51
$BDGSV,2,2,8,165,16,248,37,166,67,201,44,168,67,128,46,169,38,212,40*5B
$GNGGA,073501.000,4004.717994,N,11614.146730,E,1,14,1.142,33.199,M,0,M,,*5F
$GNGLL,4004.717994,N,11614.146730,E,073501.000,A,A*46
$GNGSA,A,3,5,6,9,17,2,12,,,,,,,1.942,1.142,1.571*2B
$GNGSA,A,3,161,162,163,164,165,166,168,169,,,,,1.942,1.142,1.571*20
$GPGSV,2,1,8,2,62,316,34,5,41,231,47,6,62,53,50,9,36,72,45*4D
$GPGSV,2,2,8,12,31,266,45,17,27,143,45,23,11,39,,25,18,306,*77
$BDGSV,2,1,8,161,36,146,41,162,31,229,37,163,43,188,43,164,25,124,38*51
$BDGSV,2,2,8,165,16,248,37,166,67,201,44,168,67,128,46,169,38,212,40*5B
$GNGGA,073502.000,4004.717988,N,11614.146729,E,1,14,1.142,33.207,M,0,M,,*5D
$GNGLL,4004.717988,N,11614.146729,E,073502.000,A,A*40
$GNGSA,A,3,5,6,9,17,2,12,,,,,,,1.942,1.142,1.571*2B
$GNGSA,A,3,161,162,163,164,165,166,168,169,,,,,1.942,1.142,1.571*20
$GPGSV,2,1,8,2,62,316,33,5,41,231,48,6,62,53,51,9,36,72,45*44
$GPGSV,2,2,8,12,31,266,45,17,27,143,45,23,11,39,,25,18,306,*77
$BDGSV,2,1,8,161,36,146,41,162,31,229,38,163,43,188,43,164,25,124,39*5F
$BDGSV,2,2,8,165,16,248,37,166,67,201,43,168,67,128,46,169,38,212,40*5C
$GNGGA,073503.000,4004.717983,N,11614.146730,E,1,14,1.142,33.213,M,0,M,,*5A
$GNGLL,4004.717983,N,11614.146730,E,073503.000,A,A*42
$GNGSA,A,3,5,6,9,17,2,12,,,,,,,1.942,1.142,1.571*2B
$GNGSA,A,3,161,162,163,164,165,166,168,169,,,,,1.942,1.142,1.571*20
$GPGSV,2,1,8,2,62,316,33,5,41,231,47,6,62,53,50,9,36,72,45*4A
$GPGSV,2,2,8,12,31,266,45,17,27,143,45,23,11,39,,25,18,306,*77
$BDGSV,2,1,8,161,36,146,41,162,31,229,38,163,43,188,43,164,25,124,32*54
$BDGSV,2,2,8,165,16,248,37,166,67,201,43,168,67,128,46,169,38,212,40*5C
$GNGGA,073504.000,4004.717980,N,11614.146729,E,1,14,1.142,33.215,M,0,M,,*50
$GNGLL,4004.717980,N,11614.146729,E,073504.000,A,A*4E
$GNGSA,A,3,5,6,9,17,2,12,,,,,,,1.942,1.142,1.571*2B
$GNGSA,A,3,161,162,163,164,165,166,168,169,,,,,1.942,1.142,1.571*20
$GPGSV,2,1,8,2,62,316,33,5,41,231,47,6,62,53,50,9,36,72,45*4A
$GPGSV,2,2,8,12,31,266,45,17,27,143,45,23,11,39,,25,18,306,*77
$BDGSV,2,1,8,161,36,146,42,162,31,229,38,163,43,188,44,164,25,124,33*51
$BDGSV,2,2,8,165,16,248,37,166,67,201,43,168,67,128,46,169,38,212,40*5C
$GNGGA,073505.000,4004.717978,N,11614.146727,E,1,14,1.142,33.217,M,0,M,,*5A
$GNGLL,4004.717978,N,11614.146727,E,073505.000,A,A*46
$GNGSA,A,3,5,6,9,17,2,12,,,,,,,1.942,1.142,1.571*2B
$GNGSA,A,3,161,162,163,164,165,166,168,169,,,,,1.942,1.142,1.571*20
$GPGSV,2,1,8,2,62,316,33,5,41,231,47,6,62,53,50,9,36,72,45*4A
$GPGSV,2,2,8,12,31,266,45,17,27,143,45,23,11,39,,25,18,306,*77
$BDGSV,2,1,8,161,36,146,42,162,31,229,38,163,43,188,44,164,25,124,33*51
$BDGSV,2,2,8,165,16,248,37,166,67,201,43,168,67,128,46,169,38,212,40*5C
$GNGGA,073506.000,4004.717977,N,11614.146726,E,1,14,1.142,33.215,M,0,M,,*55
$GNGLL,4004.717977,N,11614.146726,E,073506.000,A,A*4B
$GNGSA,A,3,5,6,9,17,2,12,,,,,,,1.942,1.142,1.571*2B
$GNGSA,A,3,161,162,163,164,165,166,168,169,,,,,1.942,1.142,1.571*20
